[{"name":"name","slug":"ID","time":"","location":"location","notes":"notes","updated":"updated","types":["types"],"address":"address","city":"city","state":"state","postal_code":"postal_code","country":"country"},{"name":"9th & McKenzie Group","slug":"dw4je-1","time":"07:00","location":"9th & McKenzie Clubhouse","notes":"District 10, Bday Last Fri. Bus. Mtg@ 6:15 PM 2nd Tuesday","updated":"2023-02-24 00:00:00","types":["O","X","EN"],"address":"904 McKenzie Ave","city":"Bremerton","state":"WA","postal_code":"98312","country":"USA"},{"name":"9th & McKenzie Group","slug":"dxj3v-2","time":"07:00","location":"9th & McKenzie Clubhouse","notes":"District 10, Bday Last Fri. Bus. Mtg@ 6:15 PM 2nd Tuesday","updated":"2023-02-24 00:00:00","types":["O","X","EN"],"address":"904 McKenzie Ave","city":"Bremerton","state":"WA","postal_code":"98312","country":"USA"},{"name":"9th & McKenzie Group","slug":"dyxo8-3","time":"07:00","location":"9th & McKenzie Clubhouse","notes":"District 10, Bday Last Fri. Bus. Mtg@ 6:15 PM 2nd Tuesday","updated":"2023-02-24 00:00:00","types":["O","X","EN"],"address":"904 McKenzie Ave","city":"Bremerton","state":"WA","postal_code":"98312","country":"USA"},{"name":"9th & McKenzie Group","slug":"e0c8p-4","time":"07:00","location":"9th & McKenzie Clubhouse","notes":"District 10, Bday Last Fri. Bus. Mtg@ 6:15 PM 2nd Tuesday","updated":"2023-02-24 00:00:00","types":["O","X","EN"],"address":"904 McKenzie Ave","city":"Bremerton","state":"WA","postal_code":"98312","country":"USA"},{"name":"9th & McKenzie Group","slug":"dqi9q-5","time":"07:00","location":"9th & McKenzie Clubhouse","notes":"District 10, Bday Last Fri. Bus. Mtg@ 6:15 PM 2nd Tuesday","updated":"2023-02-24 00:00:00","types":["O","X","EN"],"address":"904 McKenzie Ave","city":"Bremerton","state":"WA","postal_code":"98312","country":"USA"},{"name":"9th & McKenzie Group","slug":"drwu7-0","time":"09:30","location":"9th & McKenzie Clubhouse","notes":"District 10, Bday Last Fri. Bus. Mtg@ 6:15 PM 2nd Tuesday","updated":"2023-02-24 00:00:00","types":["O","X","EN"],"address":"904 McKenzie Ave","city":"Bremerton","state":"WA","postal_code":"98312","country":"USA"},{"name":"9th & McKenzie Group","slug":"dtbek-6","time":"09:30","location":"9th & McKenzie Clubhouse","notes":"District 10, Bday Last Fri. Bus. Mtg@ 6:15 PM 2nd Tuesday","updated":"2023-02-24 00:00:00","types":["O","X","EN"],"address":"904 McKenzie Ave","city":"Bremerton","state":"WA","postal_code":"98312","country":"USA"},{"name":"9th & McKenzie Group","slug":"dupz1-0","time":"12:00","location":"9th & McKenzie Clubhouse","notes":"District 10, Bday Last Fri. Bus. Mtg@ 6:15 PM 2nd Tuesday","updated":"2023-02-24 00:00:00","types":["O","X","EN"],"address":"904 McKenzie Ave","city":"Bremerton","state":"WA","postal_code":"98312","country":"USA"},{"name":"9th & McKenzie Group","slug":"e7d2q-1","time":"12:00","location":"9th & McKenzie Clubhouse","notes":"District 10, Bday Last Fri. Bus. Mtg@ 6:15 PM 2nd Tuesday","updated":"2023-02-24 00:00:00","types":["O","X","EN"],"address":"904 McKenzie Ave","city":"Bremerton","state":"WA","postal_code":"98312","country":"USA"},{"name":"9th & McKenzie Group","slug":"e8rn7-2","time":"12:00","location":"9th & McKenzie Clubhouse","notes":"District 10, Bday Last Fri. Bus. Mtg@ 6:15 PM 2nd Tuesday","updated":"2023-02-24 00:00:00","types":["O","X","EN"],"address":"904 McKenzie Ave","city":"Bremerton","state":"WA","postal_code":"98312","country":"USA"},{"name":"9th & McKenzie Group","slug":"ea67k-3","time":"12:00","location":"9th & McKenzie Clubhouse","notes":"District 10, Bday Last Fri. Bus. Mtg@ 6:15 PM 2nd Tuesday","updated":"2023-02-24 00:00:00","types":["O","X","EN"],"address":"904 McKenzie Ave","city":"Bremerton","state":"WA","postal_code":"98312","country":"USA"},{"name":"9th & McKenzie Group","slug":"ebks1-4","time":"12:00","location":"9th & McKenzie Clubhouse","notes":"District 10, Bday Last Fri. Bus. Mtg@ 6:15 PM 2nd Tuesday","updated":"2023-02-24 00:00:00","types":["O","X","EN"],"address":"904 McKenzie Ave","city":"Bremerton","state":"WA","postal_code":"98312","country":"USA"},{"name":"9th & McKenzie Group","slug":"e1qt2-5","time":"12:00","location":"9th & McKenzie Clubhouse","notes":"District 10, Bday Last Fri. Bus. Mtg@ 6:15 PM 2nd Tuesday","updated":"2023-02-24 00:00:00","types":["O","X","EN"],"address":"904 McKenzie Ave","city":"Bremerton","state":"WA","postal_code":"98312","country":"USA"},{"name":"9th & McKenzie Group","slug":"e35dj-6","time":"12:00","location":"9th & McKenzie Clubhouse","notes":"District 10, Bday Last Fri. Bus. Mtg@ 6:15 PM 2nd Tuesday","updated":"2023-02-24 00:00:00","types":["O","X","EN"],"address":"904 McKenzie Ave","city":"Bremerton","state":"WA","postal_code":"98312","country":"USA"},{"name":"9th & McKenzie Group","slug":"e4jxw-0","time":"15:00","location":"9th & McKenzie Clubhouse","notes":"District 10, Bday Last Fri. Bus. Mtg@ 6:15 PM 2nd Tuesday","updated":"2023-02-24 00:00:00","types":["O","X","EN"],"address":"904 McKenzie Ave","city":"Bremerton","state":"WA","postal_code":"98312","country":"USA"},{"name":"9th & McKenzie Group","slug":"e5yid-1","time":"17:00","location":"9th & McKenzie Clubhouse","notes":"District 10, Living Sober Book Study","updated":"2023-02-24 00:00:00","types":["O","X","EN"],"address":"904 McKenzie Ave","city":"Bremerton","state":"WA","postal_code":"98312","country":"USA"},{"name":"9th & McKenzie Group","slug":"eilm2-2","time":"17:00","location":"9th & McKenzie Clubhouse","notes":"District 10, Bday Last Fri. Bus. Mtg@ 6:15 PM 2nd Tuesday","updated":"2023-02-24 00:00:00","types":["O","X","EN"],"address":"904 McKenzie Ave","city":"Bremerton","state":"WA","postal_code":"98312","country":"USA"},{"name":"9th & McKenzie Group","slug":"ek06j-3","time":"17:00","location":"9th & McKenzie Clubhouse","notes":"District 10, District 10, Bday Last Fri. Bus. Mtg@ 6:15 PM 2nd Tuesday","updated":"2023-02-24 00:00:00","types":["O","X","EN"],"address":"904 McKenzie Ave","city":"Bremerton","state":"WA","postal_code":"98312","country":"USA"},{"name":"9th & McKenzie Group","slug":"eleqw-4","time":"17:00","location":"9th & McKenzie Clubhouse","notes":"District 10, District 10, Bday Last Fri. Bus. Mtg@ 6:15 PM 2nd Tuesday","updated":"2023-02-24 00:00:00","types":["O","X","EN"],"address":"904 McKenzie Ave","city":"Bremerton","state":"WA","postal_code":"98312","country":"USA"},{"name":"9th & McKenzie Group","slug":"emtbd-5","time":"17:00","location":"9th & McKenzie Clubhouse","notes":"District 10, Ends @ 7:00 PM, Legacy Study","updated":"2023-02-24 00:00:00","types":["O","X","EN"],"address":"904 McKenzie Ave","city":"Bremerton","state":"WA","postal_code":"98312","country":"USA"},{"name":"9th & McKenzie Group","slug":"eczce-0","time":"18:00","location":"9th & McKenzie Clubhouse","notes":"District 10, Emotional Sobriety Book Study","updated":"2023-02-24 00:00:00","types":["O","X","EN"],"address":"904 McKenzie Ave","city":"Bremerton","state":"WA","postal_code":"98312","country":"USA"},{"name":"9th & McKenzie Group","slug":"mck-02","time":"18:15","location":"9th & McKenzie Clubhous","notes":"District 10, Spanish Speaking","updated":"2023-02-24 00:00:00","types":["O","X","S","EN"],"address":"904 McKenzie Ave","city":"Bremeron","state":"WA","postal_code":"98312","country":"USA"},{"name":"9th & McKenzie Group","slug":"mck-03","time":"19:30","location":"9th & McKenzie Clubhous","notes":"District 10, Bday Last Fri. Bus. Mtg@ 6:15 PM 2nd Tuesday","updated":"2023-02-24 00:00:00","types":["O","M","X","EN"],"address":"904 McKenzie Ave","city":"Bremeron","state":"WA","postal_code":"98312","country":"USA"},{"name":"9th & McKenzie Group","slug":"mck-0","time":"19:30","location":"9th & McKenzie Clubhouse","notes":"District 10, Bday Last Fri. Bus. Mtg@ 6:15 PM 2nd Tuesday","updated":"2023-02-24 00:00:00","types":["O","W","EN"],"address":"904 McKenzie Ave","city":"Bremerton","state":"WA","postal_code":"98312","country":"USA"},{"name":"9th & McKenzie Group","slug":"efsh8-3","time":"19:30","location":"9th & McKenzie Clubhouse","notes":"District 10, Big Book Study","updated":"2023-02-24 00:00:00","types":["O","X","EN"],"address":"904 McKenzie Ave","city":"Bremerton","state":"WA","postal_code":"98312","country":"WA"},{"name":"9th & McKenzie Group","slug":"mck-1","time":"19:30","location":"9th & McKenzie Clubhouse","notes":"District 10, BirthdayNight Last Friday","updated":"2023-02-24 00:00:00","types":["O","X","EN"],"address":"904 McKenzie Ave","city":"Bremerton","state":"WA","postal_code":"98312","country":"WA"},{"name":"9th & McKenzie Group","slug":"eh71p-6","time":"19:30","location":"9th & McKenzie Clubhouse","notes":"District 10, District 10, Bday Last Fri. Bus. Mtg@ 6:15 PM 2nd Tuesday","updated":"2023-02-24 00:00:00","types":["O","X","SP","EN"],"address":"904 McKenzie Ave","city":"Bremerton","state":"WA","postal_code":"98312","country":"USA"},{"name":"Allyn Survivors","slug":"eo7vq-0","time":"19:00","location":"Allyn Historical Church","notes":"District 10, Big Book Study","updated":"2022-03-25 00:00:00","types":["C","X","EN"],"address":"18510 WA-3","city":"Allyn","state":"WA","postal_code":"98524","country":"USA"},{"name":"Allyn Men's Stag","slug":"epmg7-5","time":"19:00","location":"Allyn Historical Church","notes":"District 10, Big Book Study, ","updated":"2022-03-25 00:00:00","types":["C","X","M","EN"],"address":"18510 WA-3","city":"Allyn","state":"WA","postal_code":"98524","country":"USA"},{"name":"Allyn Men's Stag Zoom","slug":"almens-01","time":"17:00","location":"Allyn Historical Church","notes":"District 10, Zoom ID: 526 425 830, PC: 082428","updated":"2022-03-25 00:00:00","types":["C","X","M","NL","ONL","EN"],"address":"","city":"Allyn","state":"WA","postal_code":"98524","country":"USA"},{"name":"Bainbridge Island Big Book Study","slug":"be856-4","time":"19:30","location":"St Barnabus Church","notes":"District 10","updated":"2022-03-25 00:00:00","types":["C","EN"],"address":"1187 Wyatt Way","city":"Bainbridge Island","state":"WA","postal_code":"98110","country":"USA"},{"name":"Bainbridge Island Group","slug":"bh1a0-6","time":"10:00","location":"Grange Hall","notes":"District 10","updated":"2023-07-15 00:00:00","types":["O","X","","EN"],"address":"10340 N Madison Ave NE","city":"Bainbridge Island","state":"WA","postal_code":"98110","country":"USA"},{"name":"Bainbridge Island Group","slug":"b8lvi-1","time":"12:00","location":"Grange Hall","notes":"District 10","updated":"2023-07-15 00:00:00","types":["O","X","EN"],"address":"10340 N Madison Ave NE","city":"Bainbridge Island","state":"WA","postal_code":"98110","country":"USA"},{"name":"Bainbridge Island Group","slug":"big-00","time":"12:00","location":"Grange Hall","notes":"District 10","updated":"2023-07-15 00:00:00","types":["O","X","EN"],"address":"10340 N Madison Ave NE","city":"Bainbridge Island","state":"WA","postal_code":"98110","country":"USA"},{"name":"Bainbridge Island Group","slug":"big-01","time":"12:00","location":"Grange Hall","notes":"District 10","updated":"2023-07-15 00:00:00","types":["O","X","EN"],"address":"10340 N Madison Ave NE","city":"Bainbridge Island","state":"WA","postal_code":"98110","country":"USA"},{"name":"Bainbridge Island Group","slug":"big-02","time":"12:00","location":"Grange Hall","notes":"District 10","updated":"2023-07-15 00:00:00","types":["O","X","EN"],"address":"10340 N Madison Ave NE","city":"Bainbridge Island","state":"WA","postal_code":"98110","country":"USA"},{"name":"Bainbridge Island Group","slug":"bpgoi-5","time":"12:00","location":"Grange Hall","notes":"District 10","updated":"2023-07-15 00:00:00","types":["O","X","EN"],"address":"10340 N Madison Ave NE","city":"Bainbridge Island","state":"WA","postal_code":"98110","country":"USA"},{"name":"Bainbride Island Group","slug":"big-03","time":"17:30","location":"Grange Hall","notes":"District 10","updated":"2023-07-15 00:00:00","types":["O","X","EN"],"address":"10340 N Madison Ave NE","city":"Bainbridge Island","state":"WA","postal_code":"98110","country":"USA"},{"name":"Bainbridge Island Group","slug":"bqv8z-0","time":"19:00","location":"Grange Hall","notes":"District 10, Speaker 1st Sunday, Traditions Study 3rd Sunday, Birthday Meeting Last Sunday","updated":"2023-07-15 00:00:00","types":["O","X","EN"],"address":"10340 N Madison Ave NE","city":"Bainbridge Island","state":"WA","postal_code":"98110","country":"USA"},{"name":"Belfair Group","slug":"bl8zb-0","time":"09:00","location":"Belfair Hall","notes":"District 10, Came to Believe Study, 1st Monday Potluck & Speaker Mtg","updated":"2023-07-12 00:00:00","types":["O","EN"],"address":"42 NE Old Belfair Hwy","city":"Belfair","state":"WA","postal_code":"98528","country":"USA"},{"name":"Belfair Group","slug":"belfg-1","time":"09:00","location":"Belfair Hall","notes":"District 10, 1st Monday 6PM Potluck & Speaker Mtg","updated":"2023-07-12 00:00:00","types":["O","EN"],"address":"42 NE Old Belfair Hwy","city":"Belfair","state":"WA","postal_code":"98528","country":"USA"},{"name":"Belfair Group","slug":"bmnjo-2","time":"09:00","location":"Belfair Hall","notes":"District 10, 1st Step Meeting, 1st Monday  6PMPotluck & Speaker Mtg","updated":"2023-07-12 00:00:00","types":["O","EN"],"address":"42 NE Old Belfair Hwy","city":"Belfair","state":"WA","postal_code":"98528","country":"USA"},{"name":"Belfair Group","slug":"belfg-3","time":"09:00","location":"Belfair Hall","notes":"District 10, Step Study, 1st Monday 6PM  Potluck & Speaker Mtg","updated":"2023-07-12 00:00:00","types":["O","EN"],"address":"42 NE Old Belfair Hwy","city":"Belfair","state":"WA","postal_code":"88528","country":"USA"},{"name":"Belfair Group","slug":"belfg-5","time":"09:00","location":"Belfair Hall","notes":"District 10, 1st Monday, 6PM Potluck & Speaker Mtg","updated":"2023-07-12 00:00:00","types":["O","EN"],"address":"42 NE Old Belfair Hwy","city":"Belfair","state":"WA","postal_code":"98528","country":"USA"},{"name":"Belfair Group","slug":"c0p7u-6","time":"09:00","location":"Belfair Hall","notes":"District 10, 1st Monday, 6PM Potluck & Speaker Mtg","updated":"2023-07-12 00:00:00","types":["O","EN"],"address":"42 NE Old Belfair Hwy","city":"Belfair","state":"WA","postal_code":"98528","country":"USA"},{"name":"Belfair Group","slug":"c23sb-0","time":"12:00","location":"Belfair Hall","notes":"District 10, 1st Monday, 6PM Potluck & Speaker Mtg","updated":"2023-07-12 00:00:00","types":["O","EN"],"address":"42 NE Old Belfair Hwy","city":"Belfair","state":"WA","postal_code":"98528","country":"USA"},{"name":"Belfair Group","slug":"c3ico-1","time":"12:00","location":"Belfair Hall","notes":"District 10, 1st Monday, 6PM Potluck & Speaker Mtg","updated":"2023-07-12 00:00:00","types":["O","EN"],"address":"42 NE Old Belfair Hwy","city":"Belfair","state":"WA","postal_code":"98528","country":"USA"},{"name":"Belfair Group","slug":"c4wx5-2","time":"12:00","location":"Belfair Hall","notes":"District 10, 1st Monday, 6PM Potluck & Speaker Mtg","updated":"2023-07-12 00:00:00","types":["O","EN",""],"address":"42 NE Old Belfair Hwy","city":"Belfair","state":"WA","postal_code":"98528","country":"USA"},{"name":"Belfair Group","slug":"bv2y6-3","time":"12:00","location":"Belfair Hall","notes":"District 10, 1st Monday, 6PM Potluck & Speaker Mtg","updated":"2023-07-12 00:00:00","types":["O","EN"],"address":"42 NE Old Belfair Hwy","city":"Belfair","state":"WA","postal_code":"98528","country":"USA"},{"name":"Belfair Group","slug":"bwhin-4","time":"12:00","location":"Belfair Hall","notes":"District 10, 1st Monday, 6PM Potluck & Speaker Mtg","updated":"2023-07-12 00:00:00","types":["O","EN"],"address":"42 NE Old Belfair Hwy","city":"Belfair","state":"WA","postal_code":"98528","country":"USA"},{"name":"Belfair Group","slug":"bxw30-5","time":"12:00","location":"Belfair Hall","notes":"District 10, 12 x 12 Study, 1st Monday, 6PM Potluck & Speaker Mtg","updated":"2023-07-12 00:00:00","types":["O","EN"],"address":"42 NE Old Belfair Hwy","city":"Belfair","state":"WA","postal_code":"98528","country":"USA"},{"name":"Belfair Group","slug":"belfg-6","time":"12:00","location":"Belfair Hall","notes":"District 10, 1st Monday, 6PM Potluck & Speaker Mtg","updated":"2023-07-12 00:00:00","types":["O","EN"],"address":"42 NE Old Belfair Hwy","city":"Belfair","state":"WA","postal_code":"98528","country":"USA"},{"name":"Belfair Group","slug":"bzanh-0","time":"17:00","location":"Belfair Hall","notes":"District 10, Emotional Sobriety Study,1st Monday, 6PM Potluck & Speaker Mtg","updated":"2023-07-12 00:00:00","types":["O","W","EN"],"address":"42 NE Old Belfair Hwy","city":"Belfair","state":"WA","postal_code":"98528","country":"USA"},{"name":"Belfair Group","slug":"belfg-8","time":"18:30","location":"Belfair Hall","notes":"District 10, 12 x 12 Study, 1st Monday, 6PM Potluck & Speaker Mtg","updated":"2023-07-12 00:00:00","types":["O","EN"],"address":"42 NE Old Belfair Hwy","city":"Belfair","state":"WA","postal_code":"98528","country":"USA"},{"name":"Belfair Group","slug":"belfg-7","time":"18:30","location":"Belfair Hall","notes":"District 10, Big Book Study, 1st Monday, 6PM Potluck & Speaker Mtg","updated":"2023-07-12 00:00:00","types":["O","EN"],"address":"42 NE Old Belfair Hwy","city":"Belfair","state":"WA","postal_code":"98528","country":"USA"},{"name":"Belfair Group","slug":"cbxr6-3","time":"19:00","location":"Belfair Hall","notes":"District 10, Legacy Study, 1st Monday, 6PM Potluck & Speaker Mtg","updated":"2023-12-05 00:00:00","types":["O","EN"],"address":"42 NE Old Belfair Hwy","city":"Belfair","state":"WA","postal_code":"98528","country":"USA"},{"name":"Boiled Owl Meeting","slug":"hps2g-3","time":"19:30","location":"Congregational United Church","notes":"District 10","updated":"2022-04-15 00:00:00","types":["O","EN"],"address":"18732 Division Ave NE","city":"Suquamish","state":"WA","postal_code":"98392","country":"USA"},{"name":"Bremerton Group","slug":"breg-0","time":"17:00","location":"9th & McKenzie","notes":"District 10","updated":"2022-12-03 00:00:00","types":["O","EN"],"address":"904 McKenzie Avenue","city":"Bremerton","state":"WA","postal_code":"98337","country":"USA"},{"name":"Caldert Closed Group","slug":"jl7c8-4","time":"19:30","location":"Congregational United Church","notes":"District 10, Rear Parking Lot","updated":"2022-04-15 00:00:00","types":["C","EN"],"address":"18732 Division Ave NE","city":"Suquamish","state":"WA","postal_code":"98382","country":"USA"},{"name":"Chico Creek Group","slug":"fykg7-6","time":"19:00","location":"Silverdale Community Church","notes":"District 10, Enter thru Red door on North side of Bldg.  ","updated":"2023-11-30 00:00:00","types":["O","EN"],"address":"9982 Silverdale Way NW","city":"Silverdale","state":"WA","postal_code":"98383","country":"USA"},{"name":"Crosby Group","slug":"gcm65-1","time":"19:00","location":"Crosby Chapel, Upstairs","notes":"District 10, Big Book Study","updated":"2023-02-09 00:00:00","types":["O","EN"],"address":"16404 NW Church Rd","city":"Seabeck","state":"WA","postal_code":"98380","country":"USA"},{"name":"Crosby Group","slug":"gp99u-5","time":"19:00","location":"Crosby Chapel,Upstairs","notes":"District 10, Step Study","updated":"2023-02-09  99L99L99","types":["O","EN"],"address":"16404 NW Church Rd","city":"Seabeck","state":"WA","postal_code":"98380","country":"USA"},{"name":"Design For Living Online","slug":"desi-0","time":"08:30","location":"","notes":"District 10, Zoom ID: 761 116 0098, PC: highonlife","updated":"2022-10-20 00:00:00","types":["O","NL","ONL","EN"],"address":"","city":"Kingston","state":"WA","postal_code":"98346","country":"USA"},{"name":"Fog Cutter Group","slug":"3sb9b-1","time":"08:00","location":"Thai Restaurant","notes":"District 10, Waterfront Entrance, Zoom ID: 537 459 9931, PC: 98110","updated":"2023-06-27 00:00:00","types":["O","TC","ONL","EN"],"address":"330 Madison Ave S","city":"Bainbridge Island","state":"WA","postal_code":"98110","country":"USA"},{"name":"Fog Cutter Group","slug":"3tpto-2","time":"08:00","location":"Thai Restaurant","notes":"District 10, Waterfront Entrance, Zoom ID: 537 459 9931, PC: 98110","updated":"2023-06-27 00:00:00","types":["O","TC","ONL","EN"],"address":"330 Madison Ave S","city":"Bainbridge Island","state":"WA","postal_code":"98110","country":"USA"},{"name":"Fog Cutter Group","slug":"3v4e5-3","time":"08:00","location":"Thai Restaurant","notes":"District 10, Waterfront Entrance, Zoom ID: 537 459 9931, PC: 98110","updated":"2023-06-27 00:00:00","types":["O","TC","ONL","EN"],"address":"330 Madison Ave S","city":"Bainbridge Island","state":"WA","postal_code":"98110","country":"USA"},{"name":"Fog Cutter Group","slug":"47rhu-4","time":"08:00","location":"Thai Restaurant","notes":"District 10, Waterfront Entrance, Zoom ID: 537 459 9931, PC: 98110","updated":"2023-06-27 00:00:00","types":["O","TC","ONL","EN"],"address":"330 Madison Ave S","city":"Bainbridge Island","state":"WA","postal_code":"98110","country":"USA"},{"name":"Fog Cutter Group","slug":"4962b-5","time":"08:00","location":"Thai Restaurant","notes":"District 10, Waterfront Entrance, Zoom ID: 537 459 9931, PC: 98110","updated":"2023-06-27 00:00:00","types":["O","TC","ONL","EN"],"address":"330 Madison Ave S","city":"Bainbridge Island","state":"WA","postal_code":"98110","country":"USA"},{"name":"Fog Cutter Group","slug":"4akmo-6","time":"08:30","location":"Thai Restaurant","notes":"District 10, Waterfront Entrance, Zoom ID: 537 459 9931, PC: 98110","updated":"2023-06-27 00:00:00","types":["O","TC","ONL","EN"],"address":"330 Madison Ave S","city":"Bainbridge Island","state":"WA","postal_code":"98110","country":"USA"},{"name":"Fog Cutter Group","slug":"fcg-01","time":"08:30","location":"Thai Restaurant","notes":"District 10, Waterfront Entrance, Zoom ID: 537 459 9931, PC: 98110","updated":"2023-06-27 00:00:00","types":["O","TC","ONL","EN"],"address":"330 Madison Ave S","city":"Bainbridge Island","state":"WA","postal_code":"98110","country":"WA"},{"name":"Free Men At Last","slug":"free-091121","time":"19:00","location":"Port Gamble General Store (Basement Room)","notes":"District 10, Prk on Main St or Side of Building, Side Entrance , Basement","updated":"2022-04-15 00:00:00","types":["O","M","EN"],"address":"32400 N Rainier Ave NE","city":"Port Gamble","state":"WA","postal_code":"98364","country":"USA"},{"name":"Freethinkers Zoom","slug":"4lt60-2","time":"18:00","location":"","notes":"District 10, Zoom ID: 4411779315, PC: 123456","updated":"2022-09-10 00:00:00","types":["O","ONL","NL","EN"],"address":"","city":"Bremerton","state":"WA","postal_code":"98370","country":"USA"},{"name":"Freethinkers Zoom","slug":"Free-00","time":"18:00","location":"","notes":"District 10, Zoom ID: 4411779315, PC: 123456","updated":"2022-09-10 00:00:00","types":["O","ONL","NL","EN"],"address":"","city":"Bremerton","state":"WA","postal_code":"98370","country":"USA"},{"name":"Friends of Bill W.","slug":"friends-00","time":"06:30","location":"Upper Level","notes":"District 10, B-Day Mtg Last Fri @ 5, Business Mtg Last Sun. @ 6","updated":"2022-08-12 00:00:00","types":["O","X","EN"],"address":"19351 8th Ave NE, Suite 111","city":"Poulsbo","state":"WA","postal_code":"98370","country":"USA"},{"name":"Friends of Bill W.","slug":"friends-01","time":"06:30","location":"Upper Level","notes":"District 10, B-Day Mtg Last Fri @ 5, Business Mtg Last Sun. @ 6","updated":"2022-08-12 00:00:00","types":["O","X","EN"],"address":"19351 8th Ave NE, Suite 111","city":"Poulsbo","state":"WA","postal_code":"98370","country":"USA"},{"name":"Friends of Bill W.","slug":"friends-02","time":"06:30","location":"Upper Level","notes":"District 10, B-Day Mtg Last Fri @ 5, Business Mtg Last Sun. @ 6","updated":"2022-08-12 00:00:00","types":["O","X","EN"],"address":"19351 8th Ave NE, Suite 111","city":"Poulsbo","state":"WA","postal_code":"98370","country":"USA"},{"name":"Friends of Bill W.","slug":"friends-03","time":"06:30","location":"Upper Level","notes":"District 10, B-Day Mtg Last Fri @ 5, Business Mtg Last Sun. @ 6","updated":"2022-08-12 00:00:00","types":["O","X","EN"],"address":"19351 8th Ave NE, Suite 111","city":"Poulsbo","state":"WA","postal_code":"98370","country":"USA"},{"name":"Friends of Bill W.","slug":"friend-04","time":"06:30","location":"Upper Level","notes":"District 10, B-Day Mtg Last Fri @ 5, Business Mtg Last Sun. @ 6","updated":"2022-08-12 00:00:00","types":["O","X","EN"],"address":"19351 8th Ave NE, Suite 111","city":"Poulsbo","state":"WA","postal_code":"98370","country":"USA"},{"name":"Friends of Bill W.","slug":"friends-05","time":"06:30","location":"Upper Level","notes":"District 10, B-Day Mtg Last Fri @ 5, Business Mtg Last Sun. @ 6","updated":"2022-08-12 00:00:00","types":["O","X","EN"],"address":"19351 8th Ave NE, Suite 111","city":"Poulsbo","state":"WA","postal_code":"98370","country":"USA"},{"name":"Friends of Bill W.","slug":"friends-06","time":"06:30","location":"Upper Level","notes":"District 10, B-Day Mtg Last Fri @ 5, Business Mtg Last Sun. @ 6","updated":"2022-08-12 00:00:00","types":["O","X","EN"],"address":"19351 8th Ave NE, Suite 111","city":"Poulsbo","state":"WA","postal_code":"98370","country":"USA"},{"name":"Friends of Bill W. Women's","slug":"friends-07","time":"10:00","location":"Upper Level","notes":"District 10, Zoom ID: 825 716 4577, PC: friends, Hybrid","updated":"2023-10-04 00:00:00","types":["O","W","ONL","EN"],"address":"19351 8th Ave NE, Suite 111","city":"Poulsbo","state":"WA","postal_code":"98370","country":"USA"},{"name":"Friends of Bill W","slug":"friends-08","time":"12:00","location":"Upper Level","notes":"District 10, B-Day Mtg Last Fri @ 5, Business Mtg Last Sun. @ 6","updated":"2022-08-12 00:00:00","types":["O","X","EN"],"address":"19351  8th Ave NE, Suite 111","city":"Poulsbo","state":"WA","postal_code":"98370","country":"USA"},{"name":"Friends of Bill W","slug":"friends-09","time":"12:00","location":"Upper Level","notes":"District 10, B-Day Mtg Last Fri @ 5, Business Mtg Last Sun. @ 6","updated":"2022-08-12 00:00:00","types":["O","X","EN"],"address":"19351 8th Ave NE, Suite 111","city":"Poulsbo","state":"WA","postal_code":"98370","country":"USA"},{"name":"Friends of Bill W","slug":"friends-10","time":"12:00","location":"Upper Level","notes":"District 10, B-Day Mtg Last Fri @ 5, Business Mtg Last Sun. @ 6","updated":"2022-08-12 00:00:00","types":["O","X","EN"],"address":"19351 8th Ave NE, Suite 111","city":"Poulsbo","state":"WA","postal_code":"98370","country":"USA"},{"name":"Friends of Bill W","slug":"friends-11","time":"12:00","location":"Upper Level","notes":"District 10, B-Day Mtg Last Fri @ 5, Business Mtg Last Sun. @ 6","updated":"2022-08-12 00:00:00","types":["O","X","EN"],"address":"19351 8th Ave NE, Suite 111","city":"Poulsbo","state":"WA","postal_code":"98370","country":"USA"},{"name":"Friends of Bill W","slug":"friends-12","time":"12:00","location":"Upper Level","notes":"District 10, B-Day Mtg Last Fri @ 5, Business Mtg Last Sun. @ 6","updated":"2022-08-12 00:00:00","types":["O","X","EN"],"address":"19351 8th Ave NE, Suite 111","city":"Poulsbo","state":"WA","postal_code":"98370","country":"USA"},{"name":"Friends of Bill W","slug":"friends-13","time":"12:00","location":"Upper Level","notes":"District 10, B-Day Mtg Last Fri @ 5, Business Mtg Last Sun. @ 6","updated":"2022-08-12 00:00:00","types":["O","X","EN"],"address":"19351 8th Ave NE, Suite 111","city":"Poulsbo","state":"WA","postal_code":"98370","country":"USA"},{"name":"Friends of Bill W","slug":"friends-14","time":"12:00","location":"Upper Level","notes":"District 10, B-Day Mtg Last Fri @ 5, Business Mtg Last Sun. @ 6","updated":"2022-08-12 00:00:00","types":["O","X","EN"],"address":"19351 8th Ave NE, Suite 111","city":"Poulsbo","state":"WA","postal_code":"98370","country":"USA"},{"name":"Friends of Bill W","slug":"friends-15","time":"17:00","location":"Upper Level","notes":"District 10, B-Day Mtg Last Fri @ 5, Business Mtg Last Sun. @ 6","updated":"2022-08-12 00:00:00","types":["O","X","EN"],"address":"19351 8th Ave NE, Suite 111","city":"Poulsbo","state":"WA","postal_code":"98370","country":"USA"},{"name":"Friends of Bill W","slug":"friends-16","time":"17:00","location":"Upper Level","notes":"District 10, B-Day Mtg Last Fri @ 5, Business Mtg Last Sun. @ 6","updated":"2022-08-12 00:00:00","types":["O","X","EN"],"address":"19351 8th Ave NE, Suite 111","city":"Poulsbo","state":"WA","postal_code":"98370","country":"USA"},{"name":"Friends of Bill W","slug":"friends-17","time":"17:00","location":"Upper Level","notes":"District 10, B-Day Mtg Last Fri @ 5, Business Mtg Last Sun. @ 6","updated":"2022-08-12 00:00:00","types":["O","X","EN"],"address":"19351 8th Ave NE, Suite 111","city":"Poulsbo","state":"WA","postal_code":"98370","country":"USA"},{"name":"Friends of Bill W","slug":"friends-18","time":"17:00","location":"Upper Level","notes":"District 10, B-Day Mtg Last Fri @ 5, Business Mtg Last Sun. @ 6","updated":"2022-08-12 00:00:00","types":["O","X","EN"],"address":"19351 8th Ave NE, Suite 111","city":"Poulsbo","state":"WA","postal_code":"98370","country":"USA"},{"name":"Friends of Bill W","slug":"friends-19","time":"17:00","location":"Upper Level","notes":"District 10, B-Day Mtg Last Fri @ 5, Business Mtg Last Sun. @ 6","updated":"2022-08-12 00:00:00","types":["O","X","EN"],"address":"19351 8th Ave NE, Suite 111","city":"Poulsbo","state":"WA","postal_code":"98370","country":"USA"},{"name":"Friends of Bill W","slug":"Friends-20","time":"17:00","location":"Upper Level","notes":"District 10, B-Day Mtg Last Fri @ 5, Business Mtg Last Sun. @ 6","updated":"2022-08-12 00:00:00","types":["O","X","EN"],"address":"19351 8th Ave NE, Suite 111","city":"Poulsbo","state":"WA","postal_code":"98370","country":"USA"},{"name":"Friends of Bill W","slug":"Friends-21","time":"17:00","location":"Upper Level","notes":"District 10, B-Day Mtg Last Fri @ 5, Business Mtg Last Sun. @ 6","updated":"2022-08-12 00:00:00","types":["O","X","EN"],"address":"19351 8th Ave NE, Suite 111","city":"Poulsbo","state":"WA","postal_code":"98370","country":"USA"},{"name":"Friends of Bill W.","slug":"Friends-22","time":"19:00","location":"Upper Level","notes":"District 10, B-Day Mtg Last Fri @ 5, Business Mtg Last Sun. @ 6","updated":"2023-03-03 00:00:00","types":["O","X","EN"],"address":"19351 8th Ave NE, Suite 111","city":"Poulsbo","state":"WA","postal_code":"98370","country":"USA"},{"name":"Friends of Bill W.","slug":"Friends-23","time":"19:00","location":"Upper Level","notes":"District 10, B-Day Mtg Last Fri @ 5, Business Mtg Last Sun. @ 6","updated":"2023-03-03 00:00:00","types":["O","X","EN"],"address":"19351 8th Ave NE, Suite 111","city":"Poulsbo","state":"WA","postal_code":"98370","country":"USA"},{"name":"Friends of Bill W.","slug":"Friends-24","time":"19:00","location":"Upper Level","notes":"District 10, B-Day Mtg Last Fri @ 5, Business Mtg Last Sun. @ 6","updated":"2023-03-03 00:00:00","types":["O","X","EN"],"address":"19351 8th Ave NE, Suite 111","city":"Poulsbo","state":"WA","postal_code":"98370","country":"USA"},{"name":"Friends of Bill W","slug":"friends-19-2","time":"19:00","location":"Upper Level","notes":"District 10, B-Day Mtg Last Fri @ 5, Business Mtg Last Sun. @ 6","updated":"2022-08-12 00:00:00","types":["O","X","EN"],"address":"19351 8th Ave NE, Suite 111","city":"Poulsbo","state":"WA","postal_code":"98370","country":"USA"},{"name":"Friends of Bill W","slug":"friends-20-2","time":"19:00","location":"Upper Level","notes":"District 10, B-Day Mtg Last Fri @ 5, Business Mtg Last Sun. @ 6","updated":"2022-08-12 00:00:00","types":["O","X","EN"],"address":"19351 8th Ave NE, Suite 111","city":"Poulsbo","state":"WA","postal_code":"98370","country":"USA"},{"name":"Friends of Bill W","slug":"friends-25","time":"21:00","location":"Upper Level","notes":"District 10, B-Day Mtg Last Fri @ 5, Business Mtg Last Sun. @ 6","updated":"2023-03-03 00:00:00","types":["O","X","EN"],"address":"19351 8th Ave NE, Suite 111","city":"Poulsbo","state":"WA","postal_code":"98370","country":"USA"},{"name":"Great Reality","slug":"greal-0","time":"18:30","location":"Chico Alliance Church","notes":"District 10, Back of church enter by childcare playground ","updated":"2022-04-01 00:00:00","types":["O","EN"],"address":"3670 Chico Way  NW ","city":"Bremerton","state":"WA","postal_code":"98312","country":"USA"},{"name":"High On Life","slug":"29j1g-0","time":"08:30","location":"Central Market","notes":"District 10","updated":"2022-04-15 00:00:00","types":["O","EN"],"address":"20148 10th Ave NE","city":"Poulsbo","state":"WA","postal_code":"98370","country":"USA"},{"name":"Kingston Group","slug":"85mq7-0","time":"10:00","location":"Bradley Center","notes":"District 10, Lower Level #130,","updated":"2023-12-14 00:00:00","types":["O","EN"],"address":"26292 Lindvog Rd NE","city":"Kingston","state":"WA","postal_code":"98346","country":"USA"},{"name":"Kingston Group","slug":"king-0","time":"10:00","location":"Bradley Center","notes":"District 10, Lower Level #130, Big Book Study","updated":"2023-12-14 00:00:00","types":["O","EN"],"address":"26292 Lindvog Rd NE","city":"Kingston","state":"WA","postal_code":"98346","country":"USA"},{"name":"Kingston Group","slug":"871ak-4","time":"10:00","location":"Bradley Center","notes":"District 10, Lower Level #130","updated":"2023-12-14 00:00:00","types":["O","EN"],"address":"26292 Lindvog Rd NE","city":"Kingston","state":"WA","postal_code":"98346","country":"USA"},{"name":"Kingston Group","slug":"88fv1-6","time":"10:00","location":"Bradley Center","notes":"District 10, Lower Level #130, First Sat Speakers Meeting","updated":"2023-12-14 00:00:00","types":["O","EN"],"address":"26292 Lindvog Rd NE","city":"Kingston","state":"WA","postal_code":"98346","country":"USA"},{"name":"Kingston Group","slug":"8l2yq-0","time":"17:00","location":"Bradley Center","notes":"District 10, Lower Level #130","updated":"2023-12-14 00:00:00","types":["O","EN"],"address":"26292 Lindvog Rd NE","city":"Kingston","state":"WA","postal_code":"98346","country":"USA"},{"name":"Kingston Group","slug":"8mhj7-1","time":"17:00","location":"Bradley Center","notes":"District 10, Lower Level #130","updated":"2023-12-14 00:00:00","types":["O","EN"],"address":"26292 Lindvog Rd NE","city":"Kingston","state":"WA","postal_code":"98346","country":"USA"},{"name":"Kingston Group","slug":"8nw3k-3","time":"17:00","location":"Bradley Center","notes":"District 10, Lower Level #130, Step Meeting","updated":"2023-12-14 00:00:00","types":["O","EN"],"address":"26292 Lindvog Rd NE","city":"Kingston","state":"WA","postal_code":"98346","country":"USA"},{"name":"Kingston Group","slug":"king-01","time":"18:00","location":"Bradley Center","notes":"District 10, Lower Level #130","updated":"2023-12-14 00:00:00","types":["O","W","EN"],"address":"26292 Lindvog Rd NE","city":"Kingston","state":"WA","postal_code":"98346","country":"USA"},{"name":"Kingston Group","slug":"8fgp2-4","time":"18:30","location":"Bradley Center","notes":"District 10, Lower Level #130, Big Book Study.","updated":"2023-12-14 00:00:00","types":["O","EN"],"address":"26292 Lindvog Rd NE","city":"Kingston","state":"WA","postal_code":"98346","country":"USA"},{"name":"Kingston Group","slug":"8gv9j-6","time":"18:30","location":"Bradley Center","notes":"District 10, Lower Level #130","updated":"2023-12-14 00:00:00","types":["O","EN"],"address":"26292 Lindvog Rd NE","city":"Kingston","state":"WA","postal_code":"98346","country":"USA"},{"name":"Kingston Group","slug":"8joed-5","time":"19:30","location":"Bradley Center","notes":"District 10, Lower Level #130, Candlelight, Last Friday Birthday Meeting","updated":"2023-12-14 00:00:00","types":["O","EN"],"address":"26292 Lindvog Rd NE","city":"Kingston","state":"WA","postal_code":"98346","country":"USA"},{"name":"Kitsap Lesbian & Gay Group","slug":"8xq4b-0","time":"19:00","location":"Congregational United Church","notes":"District 10","updated":"2022-04-15 00:00:00","types":["O","LGBTQ","EN"],"address":"18732 Division Ave NE","city":"Suquamish","state":"WA","postal_code":"98392","country":"USA"},{"name":"Men's Spiritual Search Group","slug":"yx881-3","time":"19:30","location":"Grace Episcopal Church","notes":"District 10, Zoom ID:  850 246 381 PC: 98110","updated":"2023-10-24 00:00:00","types":["C","X","M","ONL","EN"],"address":"8595 NE Day Rd","city":"Bainbridge Island","state":"WA","postal_code":"98110","country":"USA"},{"name":"Mustard Seed Group","slug":"v25xe-2","time":"19:00","location":"Port Madison Lutheran Church","notes":"District 10, N Madison & Torvanger, Bday Mtg(O) Last Tuesday, Zoom ID: 832 0186 8352, PW: stepstrads","updated":"2023-07-13 00:00:00","types":["C","ONL","EN"],"address":"14000 N Madison Ave NE","city":"Bainbridge Island","state":"WA","postal_code":"98110","country":"USA"},{"name":"On Awakening","slug":"12fn7r-1","time":"08:00","location":"Thai Restaurant","notes":"District 10, Social Distancing, Masks Required. Enter from Waterfront","updated":"2021-03-05 00:00:00","types":["O","EN"],"address":"330 Madison Ave S","city":"Bainbridge","state":"WA","postal_code":"98110","country":"USA"},{"name":"On Awakening","slug":"12h1s4-2","time":"08:00","location":"Thai Restaurant","notes":"District 10, Social Distancing, Masks Required. Enter from Waterfront","updated":"2021-03-05 00:00:00","types":["O","EN"],"address":"330 Madison Ave S","city":"Bainbridge","state":"WA","postal_code":"98110","country":"USA"},{"name":"On Awakening","slug":"12igcl-3","time":"08:00","location":"Thai Restaurant","notes":"District 10, Social Distancing, Masks Required. Enter from Waterfront","updated":"2021-03-05 00:00:00","types":["O","EN"],"address":"330 Madison Ave S","city":"Bainbridge","state":"WA","postal_code":"98110","country":"USA"},{"name":"On Awakening","slug":"12v3i2-4","time":"08:00","location":"Thai Restaurant","notes":"District 10, Social Distancing, Masks Required. Enter from Waterfront","updated":"2021-03-05 00:00:00","types":["O","EN"],"address":"330 Madison Ave S","city":"Bainbridge","state":"WA","postal_code":"98110","country":"USA"},{"name":"On Awakening","slug":"12wi2j-5","time":"08:00","location":"Thai Restaurant","notes":"District 10, Social Distancing, Masks Required. Enter from Waterfront","updated":"2021-03-05 00:00:00","types":["O","EN"],"address":"330 Madison Ave S","city":"Bainbridge","state":"WA","postal_code":"98110","country":"USA"},{"name":"On Awakening","slug":"12xwmw-6","time":"08:00","location":"Thai Restaurant","notes":"District 10, Social Distancing, Masks Required. Enter from Waterfront","updated":"2021-03-11 00:00:00","types":["O","EN"],"address":"330 Madison Ave S","city":"Bainbride","state":"WA","postal_code":"98110","country":"USA"},{"name":"One Zoom At A Time","slug":"ozo-01","time":"19:00","location":"","notes":"District 10 Zoom ID:92143758372, PW: sober","updated":"2024-04-11 00:00:00","types":["O","ONL","EN"],"address":"","city":"","state":"WA","postal_code":"","country":"USA"},{"name":"Out of the Fog Group","slug":"12ph8e-0","time":"08:30","location":"Thai Restaurant","notes":"District 10, Waterfront Entrance, Zoom ID: 537 459 9931, PC: 1234","updated":"2022-03-25 00:00:00","types":["O","TC","ONL","EN"],"address":"330 Madison Ave S","city":"Bainbridge Island","state":"WA","postal_code":"98110","country":"USA"},{"name":"Pine Road Group","slug":"130prq-1","time":"19:00","location":"Holy Trinity, Scout Hall Behind Church","notes":"District 10, In Scout Hall behind Church","updated":"2022-03-29 00:00:00","types":["C","X","EN"],"address":"4215 Pine Rd NE","city":"Bremerton","state":"WA","postal_code":"98310","country":"USA"},{"name":"Pine Road Group","slug":"1324c7-4","time":"19:00","location":"At Scout Hall behind Church","notes":"District 10, In Scout Hall behind Church","updated":"2022-03-29 00:00:00","types":["O","X","EN"],"address":"4215 Pine Rd NE","city":"Bremerton","state":"WA","postal_code":"98310","country":"USA"},{"name":"Platitudes Group","slug":"134xh1-1","time":"19:30","location":"Seabold Community Hall","notes":"District 10","updated":"2022-03-25 00:00:00","types":["O","X","EN"],"address":"14450 Komedal Rd NE","city":"Bainbridge Island","state":"WA","postal_code":"98110","country":"USA"},{"name":"Principles Over Personalities","slug":"pop-1","time":"19:30","location":"Eagles Harbor Contregational Church","notes":"District 10","updated":"2022-03-25 00:00:00","types":["O","W","EN"],"address":"105 Winslow Way W","city":"Bainbridge Island","state":"WA","postal_code":"98110","country":"USA"},{"name":"Principles Over Personalities","slug":"13n6ue-5","time":"19:00","location":"Eagle Harbor Congregational Chruch","notes":"District 10","updated":"2022-03-25 00-00:00","types":["O","EN"],"address":"105 Winslow Way W","city":"Bainbridge Island","state":"WA","postal_code":"98110","country":"USA"},{"name":"Serenity Speakers","slug":"mtryv-5","time":"19:00","location":"Disabled Amercian Veterans","notes":"District 10, 1st & Last Fri. Speakers Mtg;; 2nd & 3rd Fri regular mtg","updated":"2023-08-31 00:00:00","types":["O","X","SP","EN"],"address":"4980 Auto Center Way","city":"Bremerton","state":"WA","postal_code":"98312","country":"USA"},{"name":"Silverdale Group","slug":"nc1c8-0","time":"07:00","location":"Silverdale Meeting Hall","notes":"District 10, B-day Nite Last Friday @ 7 p.m., Lower level in Rear","updated":"2022-08-23 00:00:00","types":["O","EN"],"address":"3627 Wheaton Way, Ste 100","city":"Silverdale","state":"WA","postal_code":"98310","country":"USA"},{"name":"Silverdale Group","slug":"ndfwp-1","time":"07:00","location":"Silverdale Meeting Hall","notes":"District 10, Living Sober, B-day Nite Last Friday @ 7 p.m., Lower level","updated":"2022-08-23 00:00:00","types":["O","EN"],"address":"3627 Wheaton Way, Ste 100","city":"Silverdale","state":"WA","postal_code":"98310","country":"USA"},{"name":"Silverdale Group","slug":"n3lxq-2","time":"07:00","location":"Silverdale Meeting Hall","notes":"District 10, B-day Nite Last Friday @ 7 p.m., Lower level in Rear","updated":"2022-08-23 00:00:00","types":["O","EN"],"address":"3627 Wheaton Way, Ste 100","city":"Silverdale","state":"WA","postal_code":"98310","country":"USA"},{"name":"Silverdale Group","slug":"n50i7-3","time":"07:00","location":"Silverdale Meeting Hall","notes":"District 10, B-day Nite Last Friday @ 7 p.m., Lower level in Rear","updated":"2022-08-23 00:00:00","types":["O","EN"],"address":"3627 Wheaton Way, Ste 100","city":"Silverdale","state":"WA","postal_code":"98310","country":"USA"},{"name":"Silverdale Group","slug":"n6f2k-4","time":"07:00","location":"Silverdale Meeting Hall","notes":"District 10, B-day Nite Last Friday @ 7 p.m., Lower level in Rear","updated":"2022-08-23 00:00:00","types":["O","EN"],"address":"3627 Wheaton Way, Ste 100","city":"Silverdale","state":"WA","postal_code":"98310","country":"USA"},{"name":"Silverdale Group","slug":"n7tn1-5","time":"07:00","location":"Silverdale Meeting Hall","notes":"District 10, As Bill Sees It,  B-day Nite Last Friday, Lower level in Rear","updated":"2022-08-23 00:00:00","types":["O","EN"],"address":"3627 Wheaton Way, Ste 100","city":"Silverdale","state":"WA","postal_code":"98310","country":"USA"},{"name":"Silverdale Group","slug":"nkgqq-6","time":"07:00","location":"Silverdale Meeting Hall","notes":"District 10, B-day Nite Last Friday @ 7 p.m, Lower level in Rear","updated":"2022-08-23 00:00:00","types":["O","EN"],"address":"3627 Wheaton Way, Ste 100","city":"Silverdale","state":"WA","postal_code":"98310","country":"USA"},{"name":"Silverdale Group","slug":"silv-1","time":"08:30","location":"Silverdale Meeting Hall","notes":"District 10, Meditation Mtg. B-day Nite, Last Fr @ 7 p.m., Lower level in rear","updated":"2023-05-10 00:00:00","types":["O","EN"],"address":"3627 Wheaton Way, Ste 100","city":"Silverdale","state":"WA","postal_code":"98310","country":"USA"},{"name":"Silverdale Group","slug":"silv-03","time":"08:30","location":"Silverdale Meeting Hall","notes":"District 10, Meditation Mtg. B-day Nite, Last Fr @ 7 p.m., Lower level in rear","updated":"2023-05-10 00:00:00","types":["O","EN"],"address":"3628 Wheaton Way, Ste 100","city":"Silverdale","state":"WA","postal_code":"98310","country":"USA"},{"name":"Silverdale Group","slug":"sil-08","time":"08:30","location":"Silverdale Meeting Hall","notes":"District 10, Meditation Mtg. B-day Nite, Last Fr @ 7 p.m., Lower level in rear","updated":"2023-05-10 00:00:00","types":["O","EN"],"address":"3628 Wheaton Way, Ste 100","city":"Silverdale","state":"WA","postal_code":"98310","country":"USA"},{"name":"Silverdale Group","slug":"silv-08","time":"08:30","location":"Silverdale Meeting Hall","notes":"District 10, Meditation Mtg. B-day Nite, Last Fr @ 7 p.m., Lower level in rear","updated":"2023-05-10 00:00:00","types":["O","EN"],"address":"3629 Wheaton Way, Ste 100","city":"Silverdale","state":"WA","postal_code":"98310","country":"USA"},{"name":"Silverdale Group","slug":"silv-09","time":"09:00","location":"Silverdale Meeting Hall","notes":"District 10, Big Book Study, Bday Nite Last Friday @ 7 p.m., Lower Level In Rear","updated":"2023-08-01 00:00:00","types":["O","W","EN"],"address":"3630 Wheaton Way, Ste 100","city":"Silverdale","state":"WA","postal_code":"98310","country":"USA"},{"name":"Silverdale Group Zoom","slug":"nn9vk-1","time":"09:00","location":"Silverdale Meeting Hall","notes":"District 10, Zoom ID:  970-112-2033, PC: Silverdale","updated":"2022-08-23 00:00:00","types":["O","TC","ONL","EN"],"address":"3627 Wheaton Way, Ste 100","city":"Silverdale","state":"WA","postal_code":"98310","country":"USA"},{"name":"Silverdale Group","slug":"silver-0","time":"09:00","location":"Silverdale Meeting Hall","notes":"District 10, B-day Nite Last Friday @ 7 p.m, Lower level in Rear","updated":"2023-01-25 00:00:00","types":["O","EN"],"address":"3627 Wheaton Way, Ste 100","city":"Silverdale","state":"WA","postal_code":"98310","country":"USA"},{"name":"Silverdale Group","slug":"silv-07","time":"10:00","location":"Silverdale Meeting Hall","notes":"District 10, 12x 2 Study, B-day Nite Last Friday @ 7 p.m, Lower level in Rear","updated":"2023-05-10 00:00:00","types":["O","EN"],"address":"3627 Wheaton Way, Ste 100","city":"Silverdale","state":"WA","postal_code":"98310","country":"USA"},{"name":"Silverdale Group","slug":"nvpbu-5","time":"10:00","location":"Silverdale Meeting Hall","notes":"District 1B-day Nite Last Friday @ 7 p.m., Lower level in Rear","updated":"2022-08-23 00:00:00","types":["O","W","EN"],"address":"3627 Wheaton Way, Ste 100","city":"Silverdale","state":"WA","postal_code":"98310","country":"USA"},{"name":"Silverdale Group","slug":"nx3wb-6","time":"10:15","location":"Silverdale Meeting Hall","notes":"District 10, Step Study, B-day Nite Last Friday @ 7 p.m., Lower level in Rear","updated":"2022-08-23 00:00:00","types":["O","EN"],"address":"3627 Wheaton Way, Ste 100","city":"Silverdale","state":"WA","postal_code":"98310","country":"USA"},{"name":"Silverdale Group","slug":"nyigo-0","time":"12:00","location":"Silverdale Meeting Hall","notes":"District 10, B-day Nite Last Friday @ 7 p.m., Lower level in Rear","updated":"2022-08-23 00:00:00","types":["O","EN"],"address":"3627 Wheaton Way, Ste 100","city":"Silverdale","state":"WA","postal_code":"98310","country":"USA"},{"name":"Silverdale Group","slug":"nzx15-1","time":"12:00","location":"Silverdale Meeting Hall","notes":"District 10, Daily Reflection, B-day Nite Last Friday @ 7 p.m., Lower level","updated":"2022-08-23 00:00:00","types":["O","EN"],"address":"3627 Wheaton Way, Ste 100","city":"Silverdale","state":"WA","postal_code":"98310","country":"USA"},{"name":"Silverdale Group","slug":"nq326-2","time":"12:00","location":"Silverdale Meeting Hall","notes":"District 10, B-day Nite Last Friday @ 7 p.m., Lower level in Rear","updated":"2022-08-23 00:00:00","types":["O","EN"],"address":"3627 Wheaton Way, Ste 100","city":"Silverdale","state":"WA","postal_code":"98310","country":"USA"},{"name":"Silverdale Group","slug":"nrhmn-3","time":"12:00","location":"Silverdale Meeting Hall","notes":"District 10, B-day Nite Last Friday @ 7 p.m., Lower level in Rear","updated":"2022-08-23 00:00:00","types":["O","EN"],"address":"3627 Wheaton Way, Ste 100","city":"Silverdale","state":"WA","postal_code":"98310","country":"USA"},{"name":"Silverdale Group","slug":"nsw70-4","time":"12:00","location":"Silverdale Meeting Hall","notes":"District 10, B-day Nite Last Friday @ 7 p.m., Lower level in Rear","updated":"2022-08-23 00:00:00","types":["O","EN"],"address":"3627 Wheaton Way, Ste 100","city":"Silverdale","state":"WA","postal_code":"98310","country":"USA"},{"name":"Silverdale Group","slug":"nuarh-5","time":"12:00","location":"Silverdale Meeting Hall","notes":"District 10, B-day Nite Last Friday @ 7 p.m., Lower level in Rear","updated":"2022-08-23 00:00:00","types":["O","EN"],"address":"3627 Wheaton Way, Ste 100","city":"Silverdale","state":"WA","postal_code":"98310","country":"USA"},{"name":"Silverdale Group","slug":"o6xv6-6","time":"12:00","location":"Silverdale Meeting Hall","notes":"District 10, B-day Nite Last Friday @ 7 p.m., Lower level in Rear","updated":"2022-08-23 00:00:00","types":["O","EN"],"address":"3627 Wheaton Way, Ste 100","city":"Silverdale","state":"WA","postal_code":"98310","country":"USA"},{"name":"Silverdale Group","slug":"o8cfn-0","time":"17:00","location":"Silverdale Meeting Hall","notes":"District 10, B-day Nite Last Friday @ 7 p.m., Lower level in Rear","updated":"2022-08-23 00:00:00","types":["O","W","EN"],"address":"3627 Wheaton Way, Ste 100","city":"Silverdale","state":"WA","postal_code":"98310","country":"USA"},{"name":"Silverdale Group","slug":"o9r00-1","time":"17:00","location":"Silverdale Meeting Hall","notes":"District 10, B-day Nite Last Friday @ 7 p.m., Lower level in Rear","updated":"2022-08-23 00:00:00","types":["O","EN"],"address":"3627 Wheaton Way, Ste 100","city":"Silverdale","state":"WA","postal_code":"98310","country":"USA"},{"name":"Silverdale Group","slug":"ob5kh-2","time":"17:00","location":"Silverdale Meeting Hall","notes":"District 10, Big Book Study, Bday Nite Last Friday @ 7 p.m., Lower Level In Rear","updated":"2022-08-23 00:00:00","types":["O","EN"],"address":"3627 Wheaton Way, Ste 100","city":"Silverdale","state":"WA","postal_code":"98310","country":"USA"},{"name":"Silverdale Group","slug":"o1bli-3","time":"17:00","location":"Silverdale Meeting Hall","notes":"District 10, B-day Nite Last Friday @ 7 p.m., Lower level in Rear","updated":"2022-08-23 00:00:00","types":["O","EN"],"address":"3627 Wheaton Way, Ste 100","city":"Silverdale","state":"WA","postal_code":"98310","country":"USA"},{"name":"Silverdale Group","slug":"o2q5z-4","time":"17:00","location":"Silverdale Meeting Hall","notes":"District 10, As Bill Sees It, Bday Nite Last Friday @ 7 p.m., Lower Level in Rear","updated":"2022-08-23 00:00:00","types":["O","EN"],"address":"3627 Wheaton Way, Ste 100","city":"Silverdale","state":"WA","postal_code":"98310","country":"USA"},{"name":"Silverdale Group","slug":"o44qc-5","time":"17:00","location":"Silverdale Meeting Hall","notes":"District 10, B-day Nite Last Friday @ 7 p.m., Lower level in Rear","updated":"2022-08-23 00:00:00","types":["O","EN"],"address":"3627 Wheaton Way, Ste 100","city":"Silverdale","state":"WA","postal_code":"98310","country":"USA"},{"name":"Silverdale Group","slug":"o5jat-6","time":"17:00","location":"Silverdale Meeting Hall","notes":"District 10, B-day Nite Last Friday @ 7 p.m., Lower level in Rear","updated":"2022-08-23 00:00:00","types":["O","EN"],"address":"3627 Wheaton Way, Ste 100","city":"Silverdale","state":"WA","postal_code":"98310","country":"USA"},{"name":"Silverdale Group Zoom","slug":"silver-0","time":"19:00","location":"Silverdale Meeting Hall","notes":"District 10,  12x12, BB StudyZoom ID 970-112-2033, PC: Silverdale","updated":"2022-08-23 00:00:00","types":["O","TC","ONL","EN"],"address":"3627 Wheaton Way, Ste 100","city":"Silverdale","state":"WA","postal_code":"98310","country":"USA"},{"name":"Silverdale Group","slug":"silver-04","time":"19:00","location":"Silverdale Meeting Hall","notes":"District 10, B-day Nite Last Friday @ 7 p.m., Lower level in Rear","updated":"2023-01-25 00:00:00","types":["O","S","EN"],"address":"3627 Wheaton Way, Ste 100","city":"Silverdale","state":"WA","postal_code":"98310","country":"USA"},{"name":"Silverdale Group","slug":"silver-02","time":"19:00","location":"Silverdale Meeting Hall","notes":"District 10, B-day Nite Last Friday @ 7 p.m., Lower level in Rear","updated":"2023-01-25 00:00:00","types":["O","S","EN"],"address":"3627 Wheaton Way, Ste 100","city":"Silverdale","state":"WA","postal_code":"98310","country":"USA"},{"name":"Silverdale Group","slug":"silver-05","time":"18:30","location":"Silverdale Meeting Hall","notes":"District 10, B-day Nite Last Friday @ 7 p.m., Lower level in Rear","updated":"2023-01-25 00:00:00","types":["O","LGBTQ","EN"],"address":"3627 Wheaton Way, Ste 100","city":"Silverdale","state":"WA","postal_code":"98310","country":"USA"},{"name":"Silverdale Group","slug":"silver-06","time":"19:00","location":"Silverdale Meeting Hall","notes":"District 10, B-day Nite Last Friday @ 7 p.m., Lower level in Rear","updated":"2023-01-25 00:00:00","types":["O","SP","EN"],"address":"3627 Wheaton Way, Ste 100","city":"Silverdale","state":"WA","postal_code":"98310","country":"USA"},{"name":"Silverdale Group","slug":"silver-07","time":"19:00","location":"Silverdale Meeting Hall","notes":"District 10, B-day Nite Last Friday @ 7 p.m., Lower level in Rear","updated":"2023-01-25 00:00:00","types":["O","S","EN"],"address":"3627 Wheaton Way, Ste 100","city":"Silverdale","state":"WA","postal_code":"98310","country":"USA"},{"name":"Silverdale Group ","slug":"silver-1","time":"21:00","location":"Silverdale Meeting Hall","notes":"District 10, Lava Lamp, Lower level in Rear","updated":"2024-02-14 00:00:00","types":["O","Y","EN"],"address":"3627 Wheaton Way, Ste 100","city":"Silverdale","state":"WA","postal_code":"98310","country":"USA"},{"name":"Simply Sober Women's Group","slug":"oqlt0-2","time":"19:00","location":"Voltin Hall Behind Church","notes":"District 10, Voltin Hall behind Church","updated":"2023-07-01 00:00:00","types":["O","W","EN"],"address":"4215 Pine Rd NE","city":"Bremerton","state":"WA","postal_code":"98310","country":"USA"},{"name":"Sober Sisters Big Book Study","slug":"ssb-0","time":"19:30","location":"Eagle Harbor Church","notes":"District 10, Big Book Study, ","updated":"2023-11-22 00:00:00","types":["O","W","EN"],"address":"105 Winslow Way West","city":"Bainbridge ","state":"WA","postal_code":"98110","country":"USA"},{"name":"Turning Point","slug":"turn-0","time":"18:15","location":"Mary and Marthas Rehabilitation Center","notes":"District 10","updated":"2023-08-15 00:00:00","types":["O","TC","EN"],"address":"19160 Front S NE","city":"Poulsbo","state":"WA","postal_code":"98370","country":"USA"},{"name":"Union Club (Bremerton)","slug":"union-91121","time":"12:00","location":"Denny's Resturant","notes":"District 10, Denny's Resturant","updated":"2022-04-15 00:00:00","types":["O","M","EN"],"address":"5004 Kitsap Way","city":"Bremerton","state":"WA","postal_code":"98312","country":"USA"},{"name":"Veterans and Active Duty Military Group","slug":"vet-1","time":"18:00","location":"","notes":"District 10","updated":"2023-12-25 00:00:00","types":["O","EN"],"address":"4980 Auto Center Way","city":"Bremerton","state":"WA","postal_code":"98310","country":"USA"}]
